Column1,year,ncessch,school_name,state_name,lea_name,zip_location,latitude,longitude,county_code,school_level,school_type
43,2015,5.30039E+11,Ardmore Elementary School,Washington,Bellevue School District,98008,47.639591,-122.117467,53033,Primary,Regular school
44,2015,5.30039E+11,Bellevue High School,Washington,Bellevue School District,98004,47.604668,-122.197234,53033,High,Regular school
45,2015,5.30039E+11,Bennett Elementary School,Washington,Bellevue School District,98008,47.624703,-122.101974,53033,Primary,Regular school
46,2015,5.30039E+11,Cherry Crest Elementary School,Washington,Bellevue School District,98005,47.63944,-122.173711,53033,Primary,Regular school
47,2015,5.30039E+11,Chinook Middle School,Washington,Bellevue School District,98004,47.62785,-122.210751,53033,Middle,Regular school
48,2015,5.30039E+11,Clyde Hill Elementary,Washington,Bellevue School District,98004,47.63083,-122.211361,53033,Primary,Regular school
49,2015,5.30039E+11,Eastgate Elementary School,Washington,Bellevue School District,98006,47.571499,-122.137329,53033,Primary,Regular school
50,2015,5.30039E+11,Enatai Elementary School,Washington,Bellevue School District,98007,47.61226,-122.138731,53033,Primary,Regular school
51,2015,5.30039E+11,Highland Middle School,Washington,Bellevue School District,98007,47.625672,-122.140555,53033,Middle,Regular school
52,2015,5.30039E+11,Interlake Senior High School,Washington,Bellevue School District,98008,47.631346,-122.123538,53033,High,Regular school
53,2015,5.30039E+11,Lake Hills Elementary,Washington,Bellevue School District,98007,47.6214,-122.1492,53033,Primary,Regular school
54,2015,5.30039E+11,Medina Elementary School,Washington,Bellevue School District,98039,47.61719,-122.234051,53033,Primary,Regular school
55,2015,5.30039E+11,Newport Heights Elementary,Washington,Bellevue School District,98006,47.5556,-122.180941,53033,Primary,Regular school
56,2015,5.30039E+11,Newport Senior High School,Washington,Bellevue School District,98006,47.5675,-122.171965,53033,High,Regular school
57,2015,5.30039E+11,Odle Middle School,Washington,Bellevue School District,98006,47.549421,-122.182843,53033,Middle,Regular school
58,2015,5.30039E+11,Phantom Lake Elementary,Washington,Bellevue School District,98008,47.60032,-122.125595,53033,Primary,Regular school
59,2015,5.30039E+11,Sammamish Senior High,Washington,Bellevue School District,98005,47.60802,-122.152288,53033,High,Regular school
60,2015,5.30039E+11,Sherwood Forest Elementary,Washington,Bellevue School District,98008,47.63059,-122.120821,53033,Primary,Regular school
61,2015,5.30039E+11,Somerset Elementary School,Washington,Bellevue School District,98006,47.563241,-122.151828,53033,Primary,Regular school
62,2015,5.30039E+11,Spiritridge Elementary School,Washington,Bellevue School District,98008,47.587901,-122.120123,53033,Primary,Regular school
63,2015,5.30039E+11,Stevenson Elementary,Washington,Bellevue School District,98007,47.61808,-122.150791,53033,Primary,Regular school
64,2015,5.30039E+11,Puesta del Sol Elementary School,Washington,Bellevue School District,98006,47.575881,-122.163838,53033,Primary,Regular school
65,2015,5.30039E+11,Tillicum Middle School,Washington,Bellevue School District,98008,47.598384,-122.125747,53033,Middle,Regular school
66,2015,5.30039E+11,Tyee Middle School,Washington,Bellevue School District,98006,47.57337,-122.159021,53033,Middle,Regular school
67,2015,5.30039E+11,Woodridge Elementary,Washington,Bellevue School District,98005,47.591957,-122.172876,53033,Primary,Regular school
68,2015,5.30039E+11,International School,Washington,Bellevue School District,98005,47.604123,-122.170332,53033,Other,Other/alternative school
69,2015,5.30039E+11,Bellevue Big Picture School,Washington,Bellevue School District,98007,47.59189,-122.141301,53033,Other,Other/alternative school
70,2015,5.30039E+11,Central Educational Services,Washington,Bellevue School District,98005,47.61058,-122.178731,53033,Other,Regular school
71,2015,5.30039E+11,Jing Mei Elementary School,Washington,Bellevue School District,98006,47.55256,-122.172301,53033,Primary,Regular school
72,2015,5.30039E+11,Grad Alliance Program,Washington,Bellevue School District,98005,47.61058,-122.178731,53033,High,Other/alternative school
164,2015,5.30375E+11,Cougar Ridge Elementary,Washington,Issaquah School District,98006,47.561898,-122.117426,53033,Primary,Regular school
165,2015,5.30375E+11,Apollo Elementary,Washington,Issaquah School District,98059,47.497298,-122.139015,53033,Primary,Regular school
166,2015,5.30375E+11,Briarwood Elementary,Washington,Issaquah School District,98059,47.483301,-122.114215,53033,Primary,Regular school
167,2015,5.30375E+11,Issaquah Middle School,Washington,Issaquah School District,98027,47.526202,-122.034774,53033,Middle,Regular school
168,2015,5.30375E+11,Issaquah High School,Washington,Issaquah School District,98027,47.522857,-122.028184,53033,High,Regular school
169,2015,5.30375E+11,Issaquah Valley Elementary,Washington,Issaquah School District,98027,47.536709,-122.04519,53033,Primary,Regular school
170,2015,5.30375E+11,Liberty Sr High School,Washington,Issaquah School District,98059,47.479781,-122.117618,53033,High,Regular school
171,2015,5.30375E+11,Maple Hills Elementary,Washington,Issaquah School District,98059,47.462309,-122.066628,53033,Primary,Regular school
172,2015,5.30375E+11,Maywood Middle School,Washington,Issaquah School District,98059,47.471313,-122.114859,53033,Middle,Regular school
173,2015,5.30375E+11,Pine Lake Middle School,Washington,Issaquah School District,98075,47.581002,-122.03433,53033,Middle,Regular school
174,2015,5.30375E+11,Sunny Hills Elementary,Washington,Issaquah School District,98075,47.580418,-122.028467,53033,Primary,Regular school
175,2015,5.30375E+11,Issaquah Special Services,Washington,Issaquah School District,98027,47.536704,-122.045164,53033,Other,Special education school
176,2015,5.30375E+11,Beaver Lake Middle School,Washington,Issaquah School District,98029,47.579847,-122.005589,53033,Middle,Regular school
177,2015,5.30375E+11,Echo Glen School,Washington,Issaquah School District,98065,47.518925,-121.901231,53033,Other,Regular school
178,2015,5.30375E+11,Tiger Mountain Community High School,Washington,Issaquah School District,98027,47.525412,-122.031361,53033,High,Other/alternative school
179,2015,5.30375E+11,Clark Elementary,Washington,Issaquah School District,98027,47.524292,-122.029622,53033,Primary,Regular school
180,2015,5.30375E+11,Challenger Elementary,Washington,Issaquah School District,98029,47.577213,-122.004232,53033,Primary,Regular school
181,2015,5.30375E+11,Sunset Elementary,Washington,Issaquah School District,98008,47.56884,-122.101681,53033,Primary,Regular school
182,2015,5.30375E+11,Discovery Elementary,Washington,Issaquah School District,98075,47.58917,-122.032691,53033,Primary,Regular school
183,2015,5.30375E+11,Endeavour Elementary School,Washington,Issaquah School District,98029,47.570283,-121.98829,53033,Primary,Regular school
184,2015,5.30375E+11,Skyline High School,Washington,Issaquah School District,98075,47.600062,-122.032025,53033,High,Regular school
185,2015,5.30375E+11,Cascade Ridge Elementary,Washington,Issaquah School District,98075,47.591299,-121.973026,53033,Primary,Regular school
186,2015,5.30375E+11,Newcastle Elementary School,Washington,Issaquah School District,98059,47.526019,-122.160144,53033,Primary,Regular school
187,2015,5.30375E+11,Grand Ridge Elementary,Washington,Issaquah School District,98029,47.546825,-122.004374,53033,Primary,Regular school
188,2015,5.30375E+11,Issaquah Head Start,Washington,Issaquah School District,98059,47.497245,-122.139005,53033,Primary,Regular school
189,2015,5.30375E+11,Creekside Elementary,Washington,Issaquah School District,98075,47.59459,-122.0637,53033,Primary,Regular school
190,2015,5.30375E+11,Pacific Cascade Middle School,Washington,Issaquah School District,98029,47.5594,-122.011411,53033,Middle,Regular school
234,2015,5.30423E+11,Bell Elementary,Washington,Lake Washington School District,98033,47.701687,-122.191965,53033,Primary,Regular school
235,2015,5.30423E+11,Audubon Elementary,Washington,Lake Washington School District,98052,47.637368,-122.101416,53033,Primary,Regular school
236,2015,5.30423E+11,Franklin Elementary,Washington,Lake Washington School District,98033,47.662154,-122.173419,53033,Primary,Regular school
237,2015,5.30423E+11,Rush Elementary,Washington,Lake Washington School District,98052,47.661762,-122.138763,53033,Primary,Regular school
238,2015,5.30423E+11,Sandburg Elementary,Washington,Lake Washington School District,98034,47.715935,-122.230458,53033,Primary,Regular school
239,2015,5.30423E+11,Dickinson Elementary,Washington,Lake Washington School District,98053,47.670079,-122.059998,53033,Primary,Regular school
240,2015,5.30423E+11,Finn Hill Middle School,Washington,Lake Washington School District,98034,47.719942,-122.232609,53033,Middle,Regular school
241,2015,5.30423E+11,Ready Start Preschool,Washington,Lake Washington School District,98052,47.68761,-122.139186,53033,Primary,Regular school
242,2015,5.30423E+11,Keller Elementary,Washington,Lake Washington School District,98034,47.724758,-122.195598,53033,Primary,Regular school
243,2015,5.30423E+11,Mann Elementary,Washington,Lake Washington School District,98052,47.691736,-122.112917,53033,Primary,Regular school
244,2015,5.30423E+11,Muir Elementary,Washington,Lake Washington School District,98034,47.726838,-122.163253,53033,Primary,Regular school
245,2015,5.30423E+11,Juanita Elementary,Washington,Lake Washington School District,98034,47.717901,-122.209264,53033,Primary,Regular school
246,2015,5.30423E+11,Juanita High,Washington,Lake Washington School District,98034,47.715169,-122.198814,53033,High,Regular school
247,2015,5.30423E+11,Kamiakin Middle School,Washington,Lake Washington School District,98034,47.727387,-122.165523,53033,Middle,Regular school
248,2015,5.30423E+11,Kirkland Middle School,Washington,Lake Washington School District,98033,47.690694,-122.200745,53033,Middle,Regular school
249,2015,5.30423E+11,Community School,Washington,Lake Washington School District,98033,47.663806,-122.190824,53033,Primary,Other/alternative school
250,2015,5.30423E+11,Lake Washington High,Washington,Lake Washington School District,98033,47.673218,-122.18038,53033,High,Regular school
251,2015,5.30423E+11,Lakeview Elementary,Washington,Lake Washington School District,98033,47.667443,-122.200095,53033,Primary,Regular school
252,2015,5.30423E+11,Twain Elementary,Washington,Lake Washington School District,98033,47.686886,-122.169389,53033,Primary,Regular school
253,2015,5.30423E+11,Kirk Elementary,Washington,Lake Washington School District,98033,47.685901,-122.195788,53033,Primary,Regular school
254,2015,5.30423E+11,Redmond Elementary,Washington,Lake Washington School District,98052,47.675503,-122.116429,53033,Primary,Regular school
255,2015,5.30423E+11,Redmond High,Washington,Lake Washington School District,98052,47.695202,-122.106616,53033,High,Regular school
256,2015,5.30423E+11,Redmond Middle School,Washington,Lake Washington School District,98052,47.691897,-122.119791,53033,Middle,Regular school
257,2015,5.30423E+11,Frost Elementary,Washington,Lake Washington School District,98034,47.725144,-122.18392,53033,Primary,Regular school
258,2015,5.30423E+11,Rose Hill Elementary,Washington,Lake Washington School District,98033,47.676659,-122.168639,53033,Primary,Regular school
259,2015,5.30423E+11,Rose Hill Middle School,Washington,Lake Washington School District,98052,47.670766,-122.15993,53033,Middle,Regular school
260,2015,5.30423E+11,Thoreau Elementary,Washington,Lake Washington School District,98034,47.724803,-122.230654,53033,Primary,Regular school
261,2015,5.30423E+11,Eastlake High School,Washington,Lake Washington School District,98074,47.613559,-122.031221,53033,High,Regular school
262,2015,5.30423E+11,Contractual Schools,Washington,Lake Washington School District,98052,47.670916,-122.12347,53033,Other,Other/alternative school
263,2015,5.30423E+11,Emerson High School,Washington,Lake Washington School District,98033,47.65534,-122.195566,53033,High,Other/alternative school
264,2015,5.30423E+11,Mead Elementary,Washington,Lake Washington School District,98074,47.625459,-122.053101,53033,Primary,Regular school
265,2015,5.30423E+11,Evergreen Middle School,Washington,Lake Washington School District,98053,47.66753,-122.060779,53033,Middle,Regular school
266,2015,5.30423E+11,Rockwell Elementary,Washington,Lake Washington School District,98052,47.699443,-122.124705,53033,Primary,Regular school
267,2015,5.30423E+11,Northstar Middle School,Washington,Lake Washington School District,98033,47.65529,-122.195551,53033,Middle,Other/alternative school
268,2015,5.30423E+11,Alcott Elementary,Washington,Lake Washington School District,98053,47.646809,-122.03756,53033,Primary,Regular school
269,2015,5.30423E+11,Smith Elementary,Washington,Lake Washington School District,98074,47.620907,-122.02728,53033,Primary,Regular school
270,2015,5.30423E+11,Wilder Elementary,Washington,Lake Washington School District,98077,47.719525,-122.041494,53033,Primary,Regular school
271,2015,5.30423E+11,Mcauliffe Elementary,Washington,Lake Washington School District,98074,47.628685,-122.020843,53033,Primary,Regular school
272,2015,5.30423E+11,Inglewood Middle School,Washington,Lake Washington School District,98074,47.61856,-122.017911,53033,Middle,Regular school
273,2015,5.30423E+11,Discovery School,Washington,Lake Washington School District,98034,47.715924,-122.230467,53033,Primary,Other/alternative school
274,2015,5.30423E+11,Explorer Community School,Washington,Lake Washington School District,98053,47.67004,-122.059995,53033,Primary,Other/alternative school
275,2015,5.30423E+11,International Community School,Washington,Lake Washington School District,98033,47.663806,-122.190824,53033,Other,Other/alternative school
276,2015,5.30423E+11,Einstein Elementary,Washington,Lake Washington School District,98052,47.701889,-122.098297,53033,Primary,Regular school
277,2015,5.30423E+11,Blackwell Elementary,Washington,Lake Washington School District,98074,47.638814,-122.067025,53033,Primary,Regular school
278,2015,5.30423E+11,Emerson K-12,Washington,Lake Washington School District,98033,47.65529,-122.195551,53033,Other,Other/alternative school
279,2015,5.30423E+11,Environmental & Adventure School,Washington,Lake Washington School District,98034,47.719953,-122.232594,53033,Middle,Other/alternative school
280,2015,5.30423E+11,Futures School,Washington,Lake Washington School District,98034,47.715169,-122.198814,53033,High,Other/alternative school
281,2015,5.30423E+11,Stella Schola,Washington,Lake Washington School District,98052,47.670778,-122.15991,53033,Middle,Other/alternative school
282,2015,5.30423E+11,Renaissance School,Washington,Lake Washington School District,98074,47.613559,-122.031221,53033,Middle,Other/alternative school
283,2015,5.30423E+11,Rosa Parks Elementary,Washington,Lake Washington School District,98053,47.685004,-122.034768,53033,Primary,Regular school
284,2015,5.30423E+11,Carson Elementary,Washington,Lake Washington School District,98074,47.61923,-122.015271,53033,Primary,Regular school
285,2015,5.30423E+11,Washington Network for Innovative Careers,Washington,Lake Washington School District,98052,47.70483,-122.16723,53033,High,Vocational school
286,2015,5.30423E+11,Tesla STEM High School,Washington,Lake Washington School District,98053,47.64868,-122.037761,53033,High,Other/alternative school
300,2015,5.30498E+11,Island Park Elementary,Washington,Mercer Island School District,98040,47.553599,-122.222602,53033,Primary,Regular school
301,2015,5.30498E+11,Lakeridge Elementary School,Washington,Mercer Island School District,98040,47.532258,-122.228855,53033,Primary,Regular school
302,2015,5.30498E+11,Mercer Island High School,Washington,Mercer Island School District,98040,47.571806,-122.219268,53033,High,Regular school
303,2015,5.30498E+11,Islander Middle School,Washington,Mercer Island School District,98040,47.537428,-122.228473,53033,Middle,Regular school
304,2015,5.30498E+11,West Mercer Elementary,Washington,Mercer Island School District,98040,47.571435,-122.231062,53033,Primary,Regular school
357,2015,5.30771E+11,Pathfinder K-8 School,Washington,Seattle Public Schools,98116,47.565622,-122.39688,53033,Primary,Other/alternative school
358,2015,5.30771E+11,Adams Elementary School,Washington,Seattle Public Schools,98107,47.673535,-122.391905,53033,Primary,Regular school
359,2015,5.30771E+11,Alki Elementary School,Washington,Seattle Public Schools,98116,47.577356,-122.407789,53033,Primary,Regular school
360,2015,5.30771E+11,Licton Springs K-8,Washington,Seattle Public Schools,98103,47.65991,-122.339891,53033,Primary,Other/alternative school
361,2015,5.30771E+11,Arbor Heights Elementary School,Washington,Seattle Public Schools,98106,47.54861,-122.362141,53033,Primary,Regular school
362,2015,5.30771E+11,Mercer International Middle School,Washington,Seattle Public Schools,98108,47.564152,-122.312111,53033,Middle,Regular school
363,2015,5.30771E+11,Daniel Bagley Elementary School,Washington,Seattle Public Schools,98103,47.686307,-122.342282,53033,Primary,Regular school
364,2015,5.30771E+11,Ballard High School,Washington,Seattle Public Schools,98117,47.676893,-122.374534,53033,High,Regular school
365,2015,5.30771E+11,Beacon Hill International School,Washington,Seattle Public Schools,98144,47.585017,-122.315378,53033,Primary,Regular school
366,2015,5.30771E+11,Martin Luther King Jr. Elementary School,Washington,Seattle Public Schools,98118,47.54198,-122.276781,53033,Primary,Regular school
367,2015,5.30771E+11,Broadview-Thomson K-8 School,Washington,Seattle Public Schools,98133,47.72463,-122.354369,53033,Primary,Regular school
368,2015,5.30771E+11,Bryant Elementary School,Washington,Seattle Public Schools,98115,47.671702,-122.292044,53033,Primary,Regular school
369,2015,5.30771E+11,Chief Sealth International High School,Washington,Seattle Public Schools,98126,47.52863,-122.366151,53033,High,Regular school
370,2015,5.30771E+11,Cleveland High School STEM,Washington,Seattle Public Schools,98108,47.552311,-122.314016,53033,High,Regular school
371,2015,5.30771E+11,Frantz Coe Elementary School,Washington,Seattle Public Schools,98119,47.640795,-122.365664,53033,Primary,Regular school
372,2015,5.30771E+11,Concord International School,Washington,Seattle Public Schools,98108,47.523584,-122.324515,53033,Primary,Regular school
373,2015,5.30771E+11,B F Day Elementary School,Washington,Seattle Public Schools,98103,47.65474,-122.34914,53033,Primary,Regular school
374,2015,5.30771E+11,Dearborn Park International School,Washington,Seattle Public Schools,98108,47.552333,-122.296195,53033,Primary,Regular school
375,2015,5.30771E+11,Dunlap Elementary School,Washington,Seattle Public Schools,98118,47.52517,-122.274682,53033,Primary,Regular school
376,2015,5.30771E+11,Eckstein Middle School,Washington,Seattle Public Schools,98115,47.682386,-122.295014,53033,Middle,Regular school
377,2015,5.30771E+11,Emerson Elementary School,Washington,Seattle Public Schools,98118,47.514758,-122.258752,53033,Primary,Regular school
378,2015,5.30771E+11,Franklin High School,Washington,Seattle Public Schools,98144,47.576039,-122.293139,53033,High,Regular school
379,2015,5.30771E+11,Kimball Elementary School,Washington,Seattle Public Schools,98144,47.574425,-122.302933,53033,Primary,Regular school
380,2015,5.30771E+11,Garfield High School,Washington,Seattle Public Schools,98122,47.60529,-122.301861,53033,High,Regular school
381,2015,5.30771E+11,Gatewood Elementary School,Washington,Seattle Public Schools,98136,47.540208,-122.388439,53033,Primary,Regular school
382,2015,5.30771E+11,Bailey Gatzert Elementary School,Washington,Seattle Public Schools,98122,47.60113,-122.315496,53033,Primary,Regular school
383,2015,5.30771E+11,Graham Hill Elementary School,Washington,Seattle Public Schools,98118,47.5457,-122.26851,53033,Primary,Regular school
384,2015,5.30771E+11,Green Lake Elementary School,Washington,Seattle Public Schools,98103,47.676253,-122.328393,53033,Primary,Regular school
385,2015,5.30771E+11,Greenwood Elementary School,Washington,Seattle Public Schools,98117,47.687287,-122.359907,53033,Primary,Regular school
386,2015,5.30771E+11,Hamilton International Middle School,Washington,Seattle Public Schools,98103,47.65745,-122.338021,53033,Middle,Regular school
387,2015,5.30771E+11,West Seattle Elementary School,Washington,Seattle Public Schools,98126,47.541686,-122.373986,53033,Primary,Regular school
388,2015,5.30771E+11,Highland Park Elementary School,Washington,Seattle Public Schools,98106,47.525585,-122.348658,53033,Primary,Regular school
389,2015,5.30771E+11,Ingraham High School,Washington,Seattle Public Schools,98133,47.725745,-122.336904,53033,High,Regular school
390,2015,5.30771E+11,John Hay Elementary School,Washington,Seattle Public Schools,98109,47.632926,-122.352219,53033,Primary,Regular school
391,2015,5.30771E+11,John Rogers Elementary School,Washington,Seattle Public Schools,98125,47.707103,-122.284666,53033,Primary,Regular school
392,2015,5.30771E+11,Lafayette Elementary School,Washington,Seattle Public Schools,98116,47.57997,-122.387148,53033,Primary,Regular school
393,2015,5.30771E+11,John Stanford International School,Washington,Seattle Public Schools,98105,47.657091,-122.323868,53033,Primary,Regular school
394,2015,5.30771E+11,Laurelhurst Elementary School,Washington,Seattle Public Schools,98105,47.66219,-122.277843,53033,Primary,Regular school
395,2015,5.30771E+11,Lawton Elementary School,Washington,Seattle Public Schools,98199,47.657095,-122.390495,53033,Primary,Regular school
396,2015,5.30771E+11,Leschi Elementary School,Washington,Seattle Public Schools,98122,47.602218,-122.291627,53033,Primary,Regular school
397,2015,5.30771E+11,Lowell Elementary School - Seattle,Washington,Seattle Public Schools,98102,47.624811,-122.318415,53033,Primary,Regular school
398,2015,5.30771E+11,Loyal Heights Elementary School,Washington,Seattle Public Schools,98117,47.686467,-122.389288,53033,Primary,Regular school
399,2015,5.30771E+11,Madison Middle School,Washington,Seattle Public Schools,98116,47.572914,-122.390282,53033,Middle,Regular school
400,2015,5.30771E+11,Maple Elementary School,Washington,Seattle Public Schools,98108,47.557991,-122.318893,53033,Primary,Regular school
401,2015,5.30771E+11,McClure Middle School,Washington,Seattle Public Schools,98119,47.636757,-122.358575,53033,Middle,Regular school
402,2015,5.30771E+11,McGilvra Elementary School,Washington,Seattle Public Schools,98112,47.634021,-122.284813,53033,Primary,Regular school
403,2015,5.30771E+11,Madrona K-8 School,Washington,Seattle Public Schools,98122,47.612293,-122.290896,53033,Primary,Regular school
404,2015,5.30771E+11,Montlake Elementary School,Washington,Seattle Public Schools,98112,47.640644,-122.304252,53033,Primary,Regular school
405,2015,5.30771E+11,John Muir Elementary School,Washington,Seattle Public Schools,98144,47.573365,-122.290826,53033,Primary,Regular school
406,2015,5.30771E+11,Nathan Hale High School,Washington,Seattle Public Schools,98125,47.707683,-122.294667,53033,High,Regular school
407,2015,5.30771E+11,North Beach Elementary School,Washington,Seattle Public Schools,98117,47.69481,-122.387116,53033,Primary,Regular school
408,2015,5.30771E+11,Northgate Elementary School,Washington,Seattle Public Schools,98125,47.714754,-122.329315,53033,Primary,Regular school
409,2015,5.30771E+11,Nova High School,Washington,Seattle Public Schools,98122,47.604408,-122.305089,53033,High,Other/alternative school
410,2015,5.30771E+11,Olympic Hills Elementary School,Washington,Seattle Public Schools,98125,47.723956,-122.306963,53033,Primary,Regular school
411,2015,5.30771E+11,Olympic View Elementary School,Washington,Seattle Public Schools,98115,47.698161,-122.321121,53033,Primary,Regular school
412,2015,5.30771E+11,South Lake High School,Washington,Seattle Public Schools,98118,47.5245,-122.271551,53033,High,Other/alternative school
413,2015,5.30771E+11,Rainier Beach High School,Washington,Seattle Public Schools,98118,47.524526,-122.26631,53033,High,Regular school
414,2015,5.30771E+11,Roosevelt High School,Washington,Seattle Public Schools,98115,47.677287,-122.312763,53033,High,Regular school
415,2015,5.30771E+11,Roxhill Elementary School,Washington,Seattle Public Schools,98126,47.518,-122.370909,53033,Primary,Regular school
416,2015,5.30771E+11,Sacajawea Elementary School,Washington,Seattle Public Schools,98115,47.698484,-122.307517,53033,Primary,Regular school
417,2015,5.30771E+11,Sanislo Elementary School,Washington,Seattle Public Schools,98106,47.539872,-122.358833,53033,Primary,Regular school
418,2015,5.30771E+11,Schmitz Park Elementary School,Washington,Seattle Public Schools,98116,47.572655,-122.396592,53033,Primary,Regular school
419,2015,5.30771E+11,Aki Kurose Middle School,Washington,Seattle Public Schools,98118,47.546505,-122.282493,53033,Middle,Regular school
420,2015,5.30771E+11,Stevens Elementary School,Washington,Seattle Public Schools,98112,47.631887,-122.308115,53033,Primary,Regular school
421,2015,5.30771E+11,Thornton Creek Elementary School,Washington,Seattle Public Schools,98115,47.685569,-122.282507,53033,Primary,Other/alternative school
422,2015,5.30771E+11,Van Asselt Elementary School,Washington,Seattle Public Schools,98108,47.538028,-122.296169,53033,Primary,Regular school
423,2015,5.30771E+11,View Ridge Elementary School,Washington,Seattle Public Schools,98115,47.680581,-122.276103,53033,Primary,Regular school
424,2015,5.30771E+11,Washington Middle School,Washington,Seattle Public Schools,98144,47.598394,-122.303885,53033,Middle,Regular school
425,2015,5.30771E+11,Wedgwood Elementary School,Washington,Seattle Public Schools,98115,47.690553,-122.29712,53033,Primary,Regular school
426,2015,5.30771E+11,West Seattle High School,Washington,Seattle Public Schools,98116,47.576899,-122.384499,53033,High,Regular school
427,2015,5.30771E+11,West Woodland Elementary School,Washington,Seattle Public Schools,98107,47.670158,-122.362653,53033,Primary,Regular school
428,2015,5.30771E+11,Whitman Middle School,Washington,Seattle Public Schools,98117,47.697075,-122.377754,53033,Middle,Regular school
429,2015,5.30771E+11,Whittier Elementary School,Washington,Seattle Public Schools,98117,47.683653,-122.373356,53033,Primary,Regular school
430,2015,5.30771E+11,Wing Luke Elementary School,Washington,Seattle Public Schools,98118,47.530615,-122.28508,53033,Primary,Regular school
431,2015,5.30771E+11,Tops K-8 School,Washington,Seattle Public Schools,98102,47.642467,-122.324159,53033,Primary,Other/alternative school
432,2015,5.30771E+11,Seattle World School,Washington,Seattle Public Schools,98112,47.62159,-122.305301,53033,Other,Other/alternative school
433,2015,5.30771E+11,Interagency Programs,Washington,Seattle Public Schools,98134,47.5805,-122.330311,53033,Other,Other/alternative school
434,2015,5.30771E+11,David T. Denny International Middle School,Washington,Seattle Public Schools,98126,47.527236,-122.37036,53033,Middle,Regular school
435,2015,5.30771E+11,Catharine Blaine K-8 School,Washington,Seattle Public Schools,98199,47.642841,-122.400346,53033,Primary,Regular school
436,2015,5.30771E+11,Orca K-8 School,Washington,Seattle Public Schools,98118,47.554585,-122.275844,53033,Primary,Other/alternative school
437,2015,5.30771E+11,Hawthorne Elementary School - Seattle,Washington,Seattle Public Schools,98118,47.565769,-122.283372,53033,Primary,Regular school
438,2015,5.30771E+11,Thurgood Marshall Elementary,Washington,Seattle Public Schools,98144,47.590978,-122.299335,53033,Primary,Regular school
439,2015,5.30771E+11,Middle College High School,Washington,Seattle Public Schools,98125,47.70624,-122.326041,53033,High,Regular school
440,2015,5.30771E+11,Education Service Centers,Washington,Seattle Public Schools,98108,47.6951,-122.340481,53033,Other,Other/alternative school
441,2015,5.30771E+11,Cascade Parent Partnership Program,Washington,Seattle Public Schools,98119,47.64627,-122.358611,53033,Other,Other/alternative school
442,2015,5.30771E+11,Salmon Bay K-8 School,Washington,Seattle Public Schools,98117,47.676583,-122.380565,53033,Primary,Other/alternative school
443,2015,5.30771E+11,Experimental Education Unit,Washington,Seattle Public Schools,98195,47.65074,-122.3076,53033,Primary,Special education school
444,2015,5.30771E+11,The Center School,Washington,Seattle Public Schools,98109,47.621713,-122.34829,53033,High,Regular school
445,2015,5.30771E+11,Residential Consortium,Washington,Seattle Public Schools,98119,47.638773,-122.369972,53033,Other,Special education school
446,2015,5.30771E+11,Interagency Detention School,Washington,Seattle Public Schools,98122,47.603914,-122.316042,53033,Other,Regular school
447,2015,5.30771E+11,South Shore PK-8 School,Washington,Seattle Public Schools,98118,47.523337,-122.272377,53033,Primary,Regular school
448,2015,5.30771E+11,Hutch School,Washington,Seattle Public Schools,98109,47.623511,-122.333356,53033,Other,Other/alternative school
449,2015,5.30771E+11,Birth to 3 Contracts,Washington,Seattle Public Schools,98134,47.581291,-122.330976,53033,Primary,Special education school
450,2015,5.30771E+11,Private School Services,Washington,Seattle Public Schools,98124,47.615455,-122.346597,53033,Other,Special education school
451,2015,5.30771E+11,Hazel Wolf K-8,Washington,Seattle Public Schools,98115,47.67716,-122.322481,53033,Primary,Regular school
452,2015,5.30771E+11,Sand Point Elementary,Washington,Seattle Public Schools,98115,47.67365,-122.262931,53033,Primary,Regular school
453,2015,5.30771E+11,Queen Anne Elementary,Washington,Seattle Public Schools,98109,47.63796,-122.348961,53033,Primary,Regular school
454,2015,5.30771E+11,McDonald International School,Washington,Seattle Public Schools,98105,47.66827,-122.326591,53033,Primary,Regular school
455,2015,5.30771E+11,Viewlands Elementary School,Washington,Seattle Public Schools,98177,47.70597,-122.361121,53033,Primary,Regular school
456,2015,5.30771E+11,Rainier View Elementary School,Washington,Seattle Public Schools,98178,47.498678,-122.264285,53033,Primary,Regular school
457,2015,5.30771E+11,Cascadia Elementary,Washington,Seattle Public Schools,98103,47.65991,-122.339891,53033,Primary,Regular school
458,2015,5.30771E+11,Seattle Skills Center,Washington,Seattle Public Schools,98124,47.5805,-122.330311,53033,High,Vocational school
459,2015,5.30771E+11,STEM K-8,Washington,Seattle Public Schools,98106,47.54861,-122.362141,53033,Primary,Regular school
460,2015,5.30771E+11,Jane Addams Middle School,Washington,Seattle Public Schools,98125,47.70986,-122.292751,53033,Middle,Regular school
461,2015,5.30771E+11,Fairmount Park Elementary School,Washington,Seattle Public Schools,98126,47.5527,-122.380291,53033,Primary,Regular school
462,2015,5.30771E+11,Interagency Open Doors,Washington,Seattle Public Schools,98118,47.55817,-122.287111,53033,High,Other/alternative school
463,2015,5.30771E+11,Bridges Transition,Washington,Seattle Public Schools,98108,47.537827,-122.294379,53033,High,Special education school
464,2015,5.30792E+11,Meridian Park Elementary School,Washington,Shoreline School District,98133,47.754978,-122.336154,53033,Primary,Regular school
465,2015,5.30792E+11,Albert Einstein Middle School,Washington,Shoreline School District,98177,47.769703,-122.362913,53033,Middle,Regular school
466,2015,5.30792E+11,Briarcrest Elementary,Washington,Shoreline School District,98155,47.742231,-122.297651,53033,Primary,Regular school
467,2015,5.30792E+11,Brookside Elementary,Washington,Shoreline School District,98155,47.754942,-122.290042,53033,Primary,Regular school
468,2015,5.30792E+11,Echo Lake Elementary School,Washington,Shoreline School District,98133,47.769997,-122.339175,53033,Primary,Regular school
469,2015,5.30792E+11,Highland Terrace Elementary,Washington,Shoreline School District,98133,47.745585,-122.359083,53033,Primary,Regular school
470,2015,5.30792E+11,Kellogg Middle School,Washington,Shoreline School District,98155,47.745614,-122.302972,53033,Middle,Regular school
471,2015,5.30792E+11,Lake Forest Park Elementary,Washington,Shoreline School District,98155,47.763064,-122.287846,53033,Primary,Regular school
472,2015,5.30792E+11,Melvin G Syre Elementary,Washington,Shoreline School District,98177,47.771743,-122.372607,53033,Primary,Regular school
473,2015,5.30792E+11,Parkwood Elementary,Washington,Shoreline School District,98133,47.740738,-122.336575,53033,Primary,Regular school
474,2015,5.30792E+11,Ridgecrest Elementary,Washington,Shoreline School District,98155,47.749256,-122.317654,53033,Primary,Regular school
475,2015,5.30792E+11,Shorecrest High School,Washington,Shoreline School District,98155,47.74087,-122.303391,53033,High,Regular school
476,2015,5.30792E+11,Shorewood High School,Washington,Shoreline School District,98133,47.753598,-122.350053,53033,High,Regular school
477,2015,5.30792E+11,Handicapped Contractual Services,Washington,Shoreline School District,98155,47.764832,-122.328262,53033,Other,Special education school
478,2015,5.30792E+11,Home Education Exchange,Washington,Shoreline School District,98155,47.76715,-122.320531,53033,Other,Other/alternative school
479,2015,5.30792E+11,Fircrest Residential Habilitation,Washington,Shoreline School District,98155,47.7392,-122.312871,53033,Other,Regular school
480,2015,5.30792E+11,Cascade K-8 Community School,Washington,Shoreline School District,98133,47.754978,-122.336154,53033,Primary,Other/alternative school
481,2015,5.30792E+11,Early Childhood Education,Washington,Shoreline School District,98133,47.754978,-122.336154,53033,Primary,Regular school
482,2015,5.30792E+11,Head Start,Washington,Shoreline School District,98133,47.754978,-122.336154,53033,Primary,Regular school
485,2015,5.30804E+11,Fall City Elementary,Washington,Snoqualmie Valley School District,98024,47.569504,-121.896058,53033,Primary,Regular school
486,2015,5.30804E+11,Mount Si High School,Washington,Snoqualmie Valley School District,98065,47.522453,-121.816742,53033,High,Regular school
487,2015,5.30804E+11,North Bend Elementary School,Washington,Snoqualmie Valley School District,98045,47.493934,-121.778994,53033,Primary,Regular school
488,2015,5.30804E+11,Snoqualmie Elementary,Washington,Snoqualmie Valley School District,98065,47.523315,-121.809962,53033,Primary,Regular school
489,2015,5.30804E+11,Two Rivers School,Washington,Snoqualmie Valley School District,98045,47.496129,-121.782039,53033,Other,Other/alternative school
490,2015,5.30804E+11,Edwin R Opstad Elementary,Washington,Snoqualmie Valley School District,98045,47.480251,-121.766804,53033,Primary,Regular school
491,2015,5.30804E+11,Chief Kanim Middle School,Washington,Snoqualmie Valley School District,98024,47.569543,-121.904997,53033,Middle,Regular school
492,2015,5.30804E+11,Cascade View Elementary School,Washington,Snoqualmie Valley School District,98065,47.532154,-121.875528,53033,Primary,Regular school
493,2015,5.30804E+11,Twin Falls Middle School,Washington,Snoqualmie Valley School District,98045,47.47363,-121.714741,53033,Middle,Regular school
494,2015,5.30804E+11,Snoqualmie Access,Washington,Snoqualmie Valley School District,98065,47.52862,-121.828461,53033,Other,Special education school
495,2015,5.30804E+11,Snoqualmie Parent Partnership Program,Washington,Snoqualmie Valley School District,98045,47.494569,-121.780067,53033,Other,Other/alternative school
496,2015,5.30804E+11,SVSD OPEN DOORS,Washington,Snoqualmie Valley School District,98065,47.52862,-121.828461,53033,High,Other/alternative school
504,2015,5.30876E+11,Rock Creek Elementary,Washington,Tahoma School District,98038,47.371918,-122.021492,53033,Primary,Regular school
505,2015,5.30876E+11,Glacier Park Elementary,Washington,Tahoma School District,98038,47.35164,-122.025408,53033,Primary,Regular school
506,2015,5.30876E+11,Cedar River Middle School,Washington,Tahoma School District,98038,47.398372,-122.051299,53033,Middle,Regular school
507,2015,5.30876E+11,Lake Wilderness Elementary,Washington,Tahoma School District,98038,47.384097,-122.046954,53033,Primary,Regular school
508,2015,5.30876E+11,Shadow Lake Elementary,Washington,Tahoma School District,98038,47.39887,-122.047025,53033,Primary,Regular school
509,2015,5.30876E+11,Tahoma Senior High School,Washington,Tahoma School District,98042,47.38863,-122.100408,53033,High,Regular school
510,2015,5.30876E+11,Russell Ridge Center,Washington,Tahoma School District,98038,47.398372,-122.051226,53033,Not applicable,Other/alternative school
511,2015,5.30876E+11,Tahoma Jr High,Washington,Tahoma School District,98051,47.372791,-122.000163,53033,Middle,Regular school
512,2015,5.30876E+11,Tahoma Middle School,Washington,Tahoma School District,98038,47.407611,-122.015011,53033,Middle,Regular school
513,2015,5.3093E+11,Chautauqua Elementary,Washington,Vashon Island School District,98070,47.427518,-122.452725,53033,Other,Regular school
514,2015,5.3093E+11,McMurray Middle School,Washington,Vashon Island School District,98070,47.428205,-122.454536,53033,Middle,Regular school
515,2015,5.3093E+11,Vashon Island High School,Washington,Vashon Island School District,98070,47.42342,-122.458991,53033,High,Regular school
516,2015,5.3093E+11,Family Link,Washington,Vashon Island School District,98070,47.423241,-122.458107,53033,Other,Other/alternative school
517,2015,5.3093E+11,Student Link,Washington,Vashon Island School District,98070,47.42329,-122.458201,53033,High,Other/alternative school
